City_ID,City,Country,Lat,Lng,Max Temp,Humidity,Cloudiness,Wind Speed,Current Description
0,Ushuaia,AR,-54.8,-68.3,62.6,55,0,16.11,clear sky
1,Bambous Virieux,MU,-20.3428,57.7575,80.6,74,40,8.05,scattered clouds
2,Fortuna,US,40.5982,-124.1573,52.0,81,20,3.78,few clouds
3,Yabrud,SY,33.9674,36.6574,51.8,76,0,3.44,clear sky
4,Bethel,US,41.3712,-73.414,28.0,36,1,3.44,clear sky
5,Airai,TL,-8.9266,125.4092,60.39,100,100,3.02,light rain
6,Kapaa,US,22.0752,-159.319,73.4,64,1,11.5,clear sky
7,Punta Arenas,CL,-53.15,-70.9167,69.8,40,0,19.57,clear sky
8,Kavieng,PG,-2.5744,150.7967,82.4,79,95,10.96,overcast clouds
9,Faanui,PF,-16.4833,-151.75,81.01,77,0,13.94,clear sky
10,Balaipungut,ID,1.05,101.2833,74.1,95,97,2.75,moderate rain
11,Norman Wells,CA,65.282,-126.8329,-31.0,75,1,5.75,clear sky
12,Rikitea,PF,-23.1203,-134.9692,77.52,70,39,7.65,light rain
13,Dromolaxia,CY,34.8761,33.586,60.01,82,40,2.3,scattered clouds
14,Puerto Ayora,EC,-0.7393,-90.3518,82.4,78,75,12.66,light rain
15,Lorengau,PG,-2.0226,147.2712,82.42,77,88,7.58,overcast clouds
16,Maceio,BR,-9.6658,-35.7353,80.6,74,40,8.05,scattered clouds
17,New Norfolk,AU,-42.7826,147.0587,53.6,71,75,10.36,broken clouds
18,Necochea,AR,-38.5473,-58.7368,68.0,61,21,5.99,few clouds
19,Sapa,PH,5.1544,120.3241,79.86,86,71,9.04,broken clouds
20,Albany,US,42.6001,-73.9662,26.01,40,93,1.01,overcast clouds
21,Comodoro Rivadavia,AR,-45.8667,-67.5,77.0,38,0,17.27,clear sky
22,Lompoc,US,34.6391,-120.4579,55.0,82,90,3.44,overcast clouds
23,Tasiilaq,GL,65.6145,-37.6368,23.0,63,75,16.11,broken clouds
24,Tuktoyaktuk,CA,69.4541,-133.0374,-41.8,66,1,4.76,clear sky
25,Port Alfred,ZA,-33.5906,26.891,66.99,87,41,7.2,scattered clouds
26,Dikson,RU,73.5069,80.5464,-31.52,84,78,13.65,broken clouds
27,Yeniseysk,RU,58.4497,92.1703,30.92,98,100,14.07,snow
28,Tukrah,LY,32.5341,20.5791,59.9,79,2,7.61,clear sky
29,Kelowna,CA,49.8831,-119.4857,23.0,38,90,12.66,overcast clouds
30,Felanitx,ES,39.4696,3.1483,59.0,58,20,20.71,few clouds
31,Saint-Philippe,RE,-21.3585,55.7679,78.8,73,0,5.75,clear sky
32,Cockburn Town,TC,21.4612,-71.1419,82.4,65,40,11.5,scattered clouds
33,Nome,US,64.5011,-165.4064,6.8,51,1,9.22,clear sky
34,Saskylakh,RU,71.9167,114.0833,-31.09,83,25,3.58,scattered clouds
35,Aklavik,CA,68.2191,-135.0107,-36.4,67,100,4.61,overcast clouds
36,Nanortalik,GL,60.1432,-45.2371,30.34,90,89,12.39,overcast clouds
37,Pacocha,PE,-17.5833,-71.3333,75.2,78,0,18.41,clear sky
38,Pochutla,MX,15.7432,-96.4661,90.0,43,1,11.5,clear sky
39,Ulladulla,AU,-35.35,150.4667,62.01,100,75,6.91,light intensity drizzle
40,East London,ZA,-33.0153,27.9116,70.36,74,36,4.45,scattered clouds
41,Lagoa,PT,39.05,-27.9833,59.41,74,100,24.38,overcast clouds
42,Ribeira Grande,PT,38.5167,-28.7,60.8,82,75,17.27,broken clouds
43,Narsaq,GL,60.9167,-46.05,39.2,28,75,41.43,broken clouds
44,Avarua,CK,-21.2078,-159.775,82.4,78,40,8.05,light rain
45,Yendi,GH,9.4427,-0.0099,86.47,14,9,0.56,clear sky
46,Jamestown,US,42.097,-79.2353,24.01,58,90,10.36,overcast clouds
47,Cayenne,GF,4.9333,-52.3333,82.4,74,75,14.97,broken clouds
48,Yellowknife,CA,62.456,-114.3525,-31.0,68,75,20.71,snow
49,Longyearbyen,SJ,78.2186,15.6401,15.8,48,0,17.27,clear sky
50,Kieta,PG,-6.2167,155.6333,80.22,83,76,10.2,broken clouds
51,Kaitangata,NZ,-46.2817,169.8464,63.0,89,100,1.99,light rain
52,Tuatapere,NZ,-46.1333,167.6833,55.13,93,100,8.97,light rain
53,Vaini,TO,-21.2,-175.2,77.0,94,90,10.36,light rain
54,Geraldton,AU,-28.7667,114.6,62.6,94,40,4.61,scattered clouds
55,Ancud,CL,-41.8697,-73.8203,80.6,39,0,8.05,clear sky
56,Arraial Do Cabo,BR,-22.9661,-42.0278,75.2,83,75,10.36,broken clouds
57,Bredasdorp,ZA,-34.5322,20.0403,71.01,83,4,2.64,clear sky
58,Te Anau,NZ,-45.4167,167.7167,57.83,93,100,1.48,light rain
59,Qaanaaq,GL,77.484,-69.3632,20.59,80,100,6.08,overcast clouds
60,Busselton,AU,-33.65,115.3333,55.99,98,79,8.52,broken clouds
61,Upernavik,GL,72.7868,-56.1549,15.98,77,0,2.62,clear sky
62,Balsas,BR,-7.5325,-46.0356,83.08,67,80,4.0,heavy intensity rain
63,Hobart,AU,-42.8794,147.3294,53.6,71,75,10.36,broken clouds
64,Chokurdakh,RU,70.6333,147.9167,-10.41,85,0,10.09,clear sky
65,Srednekolymsk,RU,67.45,153.6833,-0.6,89,99,1.54,overcast clouds
66,Cape Town,ZA,-33.9258,18.4232,71.01,78,20,19.57,few clouds
67,Bluff,NZ,-46.6,168.3333,57.38,96,100,10.71,overcast clouds
68,Hermanus,ZA,-34.4187,19.2345,71.01,83,10,5.14,clear sky
69,San Ramon,US,37.7799,-121.978,60.01,63,100,1.99,overcast clouds
70,Mataura,NZ,-46.1927,168.8643,57.42,95,100,2.48,light rain
71,Port Hedland,AU,-20.3167,118.5667,75.2,88,0,9.22,clear sky
72,Umea,SE,63.8284,20.2597,1.4,92,0,3.44,clear sky
73,Piacabucu,BR,-10.4056,-36.4344,81.16,72,59,13.31,broken clouds
74,Labuhan,ID,-6.8844,112.2051,78.4,86,100,7.9,overcast clouds
75,Tahoua,NE,14.8888,5.2692,74.28,15,48,9.6,scattered clouds
76,Nueva Germania,PY,-23.9,-56.5667,89.13,41,97,2.89,overcast clouds
77,Georgetown,MY,5.4112,100.3354,80.01,83,20,3.44,few clouds
78,Clarksburg,US,39.2807,-80.3445,43.0,35,1,2.57,clear sky
79,Mahebourg,MU,-20.4081,57.7,80.6,74,40,8.05,scattered clouds
80,Chipinge,ZW,-20.1883,32.6236,63.97,91,3,4.23,clear sky
81,Kirksville,US,40.1948,-92.5833,6.8,78,90,11.5,light snow
82,Pevek,RU,69.7008,170.3133,-12.46,82,100,1.86,overcast clouds
83,Carauari,BR,-4.8828,-66.8958,90.18,56,47,3.78,scattered clouds
84,Hilo,US,19.7297,-155.09,75.99,50,1,3.44,clear sky
85,Torbay,CA,47.6666,-52.7314,33.01,93,90,20.71,light rain
86,Half Moon Bay,US,37.4636,-122.4286,55.99,82,20,8.05,haze
87,Mahmudia,RO,45.0833,29.0833,54.0,87,75,17.27,broken clouds
88,Granville,AU,-33.8333,151.0167,68.0,64,75,12.66,broken clouds
89,Provideniya,RU,64.3833,-173.3,-1.21,87,100,18.16,light snow
90,Kununurra,AU,-15.7667,128.7333,77.0,100,90,5.75,overcast clouds
91,Thompson,CA,55.7435,-97.8558,-20.2,69,90,14.97,snow
92,Vysokogornyy,RU,50.1167,139.15,-11.45,87,100,5.35,overcast clouds
93,Kodiak,US,57.79,-152.4072,30.2,74,20,11.5,few clouds
94,Talnakh,RU,69.4865,88.3972,5.31,93,100,11.32,overcast clouds
95,Semnan,IR,35.5729,53.3971,48.69,67,0,1.81,clear sky
96,Newport,GB,51.5877,-2.9984,34.0,81,16,18.99,few clouds
97,Constitucion,CL,-35.3333,-72.4167,66.16,71,13,10.92,few clouds
98,Chuy,UY,-33.6971,-53.4616,68.04,87,82,13.11,broken clouds
99,Hamilton,US,39.1834,-84.5333,37.4,35,40,4.61,scattered clouds
100,Cherskiy,RU,68.75,161.3,3.49,72,100,4.52,overcast clouds
101,Bardiyah,LY,31.7561,25.0865,62.35,72,0,12.06,clear sky
102,Springbok,ZA,-29.6643,17.8865,72.0,41,0,6.44,clear sky
103,Kruisfontein,ZA,-34.0033,24.7314,68.0,77,21,5.01,few clouds
104,Vila Velha,BR,-20.3297,-40.2925,79.0,94,90,1.99,mist
105,Tura,IN,25.5198,90.2201,57.94,46,0,2.3,clear sky
106,Santa Rosa,PH,14.3122,121.1114,78.8,73,40,4.61,scattered clouds
107,Port Elizabeth,ZA,-33.918,25.5701,68.0,77,60,5.01,broken clouds
108,Tongzi,CN,28.7829,105.0877,53.91,67,100,2.64,overcast clouds
109,Hasaki,JP,35.7333,140.8333,32.0,43,20,17.27,few clouds
110,Cabo San Lucas,MX,22.8909,-109.9124,75.0,40,1,11.5,clear sky
111,Lebu,CL,-37.6167,-73.65,64.33,79,10,9.19,clear sky
112,Yerofey Pavlovich,RU,53.9667,121.9667,-2.29,88,100,3.83,overcast clouds
113,Nacala,MZ,-14.5428,40.6728,79.5,86,70,6.98,broken clouds
114,Saint George,US,37.1041,-113.5841,60.01,20,98,2.1,overcast clouds
115,Diego De Almagro,CL,-26.3667,-70.05,83.5,20,0,14.2,clear sky
116,Yekaterinogradskaya,RU,43.7635,44.2317,26.6,93,90,2.24,light snow
117,Rio Gallegos,AR,-51.6226,-69.2181,82.4,21,0,10.36,clear sky
118,Skjervoy,NO,70.0311,20.9714,23.0,80,75,6.91,light snow
119,Avera,US,33.194,-82.5271,60.8,55,40,8.05,scattered clouds
120,Gravelbourg,CA,49.8834,-106.5512,-16.6,58,0,17.27,clear sky
121,Gazalkent,UZ,41.5581,69.7708,50.0,87,0,4.61,clear sky
122,Santa Helena,BR,-2.2311,-45.3,84.47,71,75,4.03,broken clouds
123,Bengkulu,ID,-3.8004,102.2655,75.94,77,97,3.56,overcast clouds
124,Buraydah,SA,26.326,43.975,51.8,100,0,6.91,clear sky
125,Port-Cartier,CA,50.0334,-66.8654,28.0,63,83,13.8,broken clouds
126,Ode,NG,7.7899,5.7117,78.03,18,70,4.25,broken clouds
127,Matara,LK,5.9485,80.5353,74.52,88,87,8.3,overcast clouds
128,Tutoia,BR,-2.7619,-42.2744,86.0,70,40,13.8,scattered clouds
129,Stokmarknes,NO,68.5646,14.9108,28.4,93,40,5.75,scattered clouds
130,Farafangana,MG,-22.8167,47.8333,79.75,87,100,11.1,light rain
131,Pisco,PE,-13.7,-76.2167,77.0,73,0,8.05,clear sky
132,Nenjiang,CN,49.1833,125.2167,0.37,89,100,4.99,overcast clouds
133,Howard Springs,AU,-12.497,131.047,75.2,94,75,9.22,broken clouds
134,Thunder Bay,CA,48.4001,-89.3168,-2.99,41,20,8.05,few clouds
135,Hofn,IS,64.2539,-15.2082,35.6,80,90,10.36,snow
136,Praia Da Vitoria,PT,38.7333,-27.0667,60.8,77,20,11.99,few clouds
137,Caravelas,BR,-17.7125,-39.2481,72.95,96,100,0.65,overcast clouds
138,Moose Factory,CA,51.2585,-80.6094,-4.0,54,1,17.27,clear sky
139,Ewa Beach,US,21.3156,-158.0072,75.2,57,20,11.5,few clouds
140,Atuona,PF,-9.8,-139.0333,79.74,76,62,21.5,broken clouds
141,Burgthann,DE,49.352,11.3115,27.0,87,100,5.08,overcast clouds
142,Seka,TH,17.9285,103.9552,65.5,84,100,2.3,light rain
143,Touros,BR,-5.1989,-35.4608,86.0,62,0,20.71,clear sky
144,San Quintin,MX,30.4833,-115.95,62.91,61,0,6.62,clear sky
145,Souillac,MU,-20.5167,57.5167,80.6,74,40,8.05,scattered clouds
146,Barrow,US,71.2906,-156.7887,-34.6,84,1,12.66,clear sky
147,Port Lincoln,AU,-34.7333,135.8667,65.21,81,7,13.09,light rain
148,Ballina,AU,-28.8667,153.5667,73.4,64,40,14.97,scattered clouds
149,Pemba,MZ,-12.974,40.5178,81.36,81,93,14.14,overcast clouds
150,Burnie,AU,-41.0667,145.9167,52.0,69,0,11.45,clear sky
151,Bathsheba,BB,13.2167,-59.5167,82.4,54,20,18.41,few clouds
152,Esperance,AU,-33.8667,121.9,62.6,88,75,4.61,broken clouds
153,Nemuro,JP,43.3236,145.575,18.27,87,77,18.39,broken clouds
154,Waipawa,NZ,-41.4122,175.5153,64.99,88,90,11.5,overcast clouds
155,Cidreira,BR,-30.1811,-50.2056,75.38,68,0,11.74,clear sky
156,Juybar,IR,36.6412,52.9124,49.73,85,0,5.82,clear sky
157,Namibe,AO,-15.1961,12.1522,72.52,77,96,8.12,overcast clouds
158,Moron,AR,-34.6534,-58.6198,77.0,61,75,11.5,broken clouds
159,Sayat,TM,38.7839,63.8803,42.8,87,0,6.91,clear sky
160,Birao,CF,10.2849,22.7882,68.47,24,55,4.76,broken clouds
161,Grand Gaube,MU,-20.0064,57.6608,78.01,80,6,1.99,clear sky
162,Pervomayskiy,RU,53.2485,40.2871,-4.61,91,32,4.16,scattered clouds
163,Martapura,ID,-3.4167,114.85,77.0,94,40,1.14,scattered clouds
164,Saiha,IN,22.4833,92.9667,53.26,60,0,3.65,clear sky
165,Mitsamiouli,KM,-11.3847,43.2844,83.1,77,100,11.41,overcast clouds
166,Carnarvon,AU,-24.8667,113.6333,77.0,100,0,18.41,clear sky
167,Olinda,BR,-8.0089,-34.8553,82.4,61,40,6.91,scattered clouds
168,Kochevo,RU,59.5994,54.3125,-16.02,87,100,9.1,overcast clouds
169,Sao Joao Da Barra,BR,-21.6403,-41.0511,78.8,73,90,11.5,light rain
170,Vostok,RU,46.4856,135.8833,-11.06,90,100,6.04,overcast clouds
171,Pacific Grove,US,36.6177,-121.9166,54.0,76,1,4.61,clear sky
172,Luganville,VU,-15.5333,167.1667,77.76,72,0,3.36,clear sky
173,Behshahr,IR,36.6923,53.5526,51.31,70,0,3.27,clear sky
174,Grindavik,IS,63.8424,-22.4338,32.0,74,0,8.05,clear sky
175,Spring Hill,US,28.4769,-82.5255,73.4,64,75,8.05,broken clouds
176,Lodwar,KE,3.1191,35.5973,83.86,43,25,7.99,scattered clouds
177,Castro,BR,-24.7911,-50.0119,70.39,75,15,8.12,few clouds
178,Meulaboh,ID,4.1363,96.1285,76.69,88,20,4.52,few clouds
179,Christchurch,NZ,-43.5333,172.6333,71.6,40,20,12.66,few clouds
180,Victoria,HK,22.2855,114.1577,66.0,76,100,4.0,overcast clouds
181,Greytown,ZA,-29.0642,30.5928,65.16,98,100,3.24,light rain
182,Clyde River,CA,70.4692,-68.5914,10.4,92,20,28.77,snow
183,Muros,ES,42.7762,-9.0603,54.0,84,100,5.01,light rain
184,Portland,US,45.5234,-122.6762,46.0,65,75,3.44,broken clouds
185,Lewisporte,CA,49.2499,-55.0482,28.4,93,90,23.02,snow
186,Miramar,US,25.9873,-80.2323,84.0,47,75,12.66,broken clouds
187,Pozo Colorado,PY,-23.4923,-58.7972,95.5,23,1,3.47,clear sky
188,Iqaluit,CA,63.7506,-68.5145,26.6,74,75,2.3,broken clouds
189,Ketchikan,US,55.3422,-131.6461,24.8,74,90,5.75,overcast clouds
190,Lata,PT,40.1629,-8.3327,54.0,86,61,4.88,broken clouds
191,Yerbogachen,RU,61.2767,108.0108,7.93,95,84,5.35,broken clouds
192,Bilma,NE,18.6853,12.9164,71.65,18,100,6.58,overcast clouds
193,Isangel,VU,-19.55,169.2667,79.09,70,8,5.21,clear sky
194,Taicheng,CN,38.731,113.228,26.92,79,0,1.74,clear sky
195,Ahipara,NZ,-35.1667,173.1667,68.36,80,100,8.88,overcast clouds
196,Conceicao Do Almeida,BR,-12.7794,-39.17,81.77,66,100,10.09,light rain
197,Lima,PE,-12.0432,-77.0282,78.01,73,40,14.97,scattered clouds
198,Santa Marta,CO,11.2408,-74.199,98.01,49,3,1.99,clear sky
199,Ryabovo,RU,59.4,31.1333,0.0,84,0,2.86,clear sky
200,Fomboni,KM,-12.28,43.7425,83.75,74,100,17.38,overcast clouds
201,Namtsy,RU,62.7161,129.6658,-31.0,68,95,2.24,mist
202,Jieznas,LT,54.6,24.1667,14.0,67,0,12.66,clear sky
203,Acarau,BR,-2.8856,-40.12,83.16,74,74,15.14,light rain
204,Mongoumba,CF,3.6415,18.5936,75.83,21,57,1.57,broken clouds
205,Khatanga,RU,71.9667,102.5,-19.21,82,0,14.05,clear sky
206,Mar Del Plata,AR,-38.0023,-57.5575,68.0,60,40,19.57,scattered clouds
207,Marawi,PH,7.9986,124.2928,75.0,93,99,5.01,light rain
208,Guangyuan,CN,32.442,105.823,41.0,74,69,3.0,broken clouds
209,North Bend,US,43.4065,-124.2243,46.0,81,1,7.31,clear sky
210,Dingle,PH,10.9995,122.6711,74.3,95,100,7.54,overcast clouds
211,Shache,CN,38.4167,77.2406,30.72,80,5,2.01,clear sky
212,Husavik,IS,66.0449,-17.3389,30.2,80,90,5.75,light snow
213,Olga,RU,43.7444,135.2892,5.85,79,79,16.69,broken clouds
214,Colares,PT,38.7992,-9.4469,55.99,89,100,11.01,overcast clouds
215,Dickinson,US,29.4608,-95.0513,71.01,82,75,12.66,broken clouds
216,Itoman,JP,26.1247,127.6694,60.8,63,75,14.97,broken clouds
217,Sao Filipe,CV,14.8961,-24.4956,70.36,75,100,12.97,overcast clouds
218,Tambura,SS,5.6,27.4667,72.05,22,53,4.07,broken clouds
219,Manono,CD,-7.3,27.4167,71.19,91,100,1.48,overcast clouds
220,Korla,CN,41.7597,86.1469,32.18,80,19,3.74,few clouds
221,Urubicha,BO,-15.3833,-62.95,93.2,39,100,4.09,overcast clouds
222,Flin Flon,CA,54.7682,-101.865,-22.0,63,90,9.22,snow
223,Rosario,AR,-32.9468,-60.6393,84.99,65,75,14.97,broken clouds
224,Padang,ID,-0.9492,100.3543,75.2,94,75,2.3,light rain
225,Barcelos,PT,41.5388,-8.6151,53.6,62,40,13.8,light rain
226,Anastacio,BR,-20.4836,-55.8069,87.8,44,1,1.72,clear sky
227,Saint-Louis,SN,16.3333,-15.0,82.4,24,0,2.3,clear sky
228,Tiksi,RU,71.6872,128.8694,-25.49,87,100,5.82,overcast clouds
229,Yar-Sale,RU,66.8333,70.8333,-18.15,87,9,6.08,clear sky
230,Tanout,NE,14.9709,8.8879,69.46,18,63,11.18,broken clouds
231,Qaqortoq,GL,60.7167,-46.0333,39.2,28,75,41.43,broken clouds
232,Billings,US,45.7833,-108.5007,1.0,71,90,6.91,light snow
233,Kloulklubed,PW,7.0419,134.2556,78.8,94,90,10.36,overcast clouds
234,Nizhnyaya Omka,RU,55.4338,74.9426,-3.03,90,100,16.06,overcast clouds
235,Shiraz,IR,29.6036,52.5388,46.4,76,0,4.61,clear sky
236,Coihaique,CL,-45.5752,-72.0662,86.0,25,0,5.75,clear sky
237,Tautira,PF,-17.7333,-149.15,84.2,70,20,3.44,few clouds
238,Yepifan,RU,53.8253,38.5518,-4.74,91,23,2.42,few clouds
239,Male,MV,4.1748,73.5089,82.4,78,20,19.57,few clouds
240,Severo-Kurilsk,RU,50.6789,156.125,17.98,87,23,6.15,few clouds
241,Hoi An,VN,15.8794,108.335,73.4,94,75,2.3,mist
242,Ferme-Neuve,CA,46.7001,-75.4493,17.6,45,98,9.22,overcast clouds
243,Nyurba,RU,63.2842,118.3319,-25.74,86,68,3.29,broken clouds
244,Broken Hill,AU,-31.95,141.4333,62.6,29,0,9.69,clear sky
245,Ponta Do Sol,PT,32.6667,-17.1,57.99,67,21,1.99,few clouds
246,Vestmannaeyjar,IS,63.4427,-20.2734,36.25,81,26,16.87,scattered clouds
247,Ilulissat,GL,69.2167,-51.1,24.8,36,1,27.63,clear sky
248,Garavuti,TJ,37.5672,68.4469,57.2,54,90,2.24,light rain
249,Zmeinogorsk,RU,51.1567,82.195,15.39,94,100,9.93,snow
250,Filadelfia,US,39.9523,-75.1638,33.01,37,20,6.91,few clouds
251,Ciudad Bolivar,VE,8.1222,-63.5497,89.35,48,95,14.36,overcast clouds
252,Bairiki,KI,1.3292,172.9752,78.8,94,75,9.22,broken clouds
253,Kupang,ID,-10.1667,123.5833,79.09,86,100,12.93,moderate rain
254,Taksimo,RU,56.3444,114.8794,0.91,89,87,0.27,overcast clouds
255,Chake Chake,TZ,-5.2459,39.7666,77.61,89,97,8.75,overcast clouds
256,Wajir,KE,1.7471,40.0573,89.85,32,100,4.18,overcast clouds
257,Mehamn,NO,71.0357,27.8492,24.8,86,75,16.11,light snow
258,Pangody,RU,65.85,74.4859,-10.8,91,91,7.74,overcast clouds
259,Pitkyaranta,RU,61.5734,31.4792,6.15,95,10,5.99,clear sky
260,Quatre Cocos,MU,-20.2078,57.7625,80.6,74,40,8.05,scattered clouds
261,Tampa,US,27.9475,-82.4584,78.8,61,90,6.91,overcast clouds
262,Suoyarvi,RU,62.0833,32.35,1.98,94,0,5.28,clear sky
263,San Carlos De Bariloche,AR,-41.1456,-71.3082,73.0,42,40,8.05,scattered clouds
264,Vaitape,PF,-16.5167,-151.75,81.23,77,6,13.31,clear sky
265,Saldanha,ZA,-33.0117,17.9442,66.54,88,0,23.42,clear sky
266,Srandakan,ID,-7.9386,110.2506,76.12,88,100,3.47,overcast clouds
267,Batemans Bay,AU,-35.7167,150.1833,59.0,87,89,3.51,overcast clouds
268,Butaritari,KI,3.0707,172.7902,81.68,83,74,19.86,light rain
269,Fairbanks,US,64.8378,-147.7164,-18.4,76,1,6.91,clear sky
270,Brewster,US,41.3973,-73.6171,30.0,36,1,3.44,clear sky
271,Beihai,CN,21.4833,109.1,64.54,82,99,11.23,light rain
272,Santa Luzia,BR,-19.7697,-43.8514,77.0,73,75,4.61,broken clouds
273,Fivizzano,IT,44.2383,10.126,55.0,84,99,8.01,overcast clouds
274,Hami,CN,42.8,93.45,31.23,77,58,2.24,broken clouds
275,Luzhou,CN,28.8724,105.4405,55.33,65,100,3.56,overcast clouds
276,Abu Kamal,SY,34.4506,40.9171,62.15,40,100,8.12,overcast clouds
277,San Antonio,US,29.4241,-98.4936,71.6,68,75,3.44,broken clouds
278,Kerman,IR,30.2832,57.0788,44.6,49,0,4.61,clear sky
279,Kurilsk,RU,45.2333,147.8833,19.18,93,100,19.91,light snow
280,Tomatlan,MX,19.9333,-105.25,86.23,42,0,9.95,clear sky
281,Sistranda,NO,63.7256,8.834,23.0,80,40,5.75,scattered clouds
282,Adrar,MR,20.5022,-10.0711,65.07,26,0,9.33,clear sky
283,Tabora,TZ,-5.0167,32.8,68.0,94,75,1.81,moderate rain
284,San Patricio,US,28.017,-97.5169,73.99,73,90,16.11,overcast clouds
285,Neuquen,AR,-38.9516,-68.0591,75.2,38,0,10.36,clear sky
286,Ternate,ID,0.8,127.4,80.8,80,89,6.31,overcast clouds
287,Coquimbo,CL,-29.9533,-71.3436,69.8,56,0,14.97,clear sky
288,Klaksvik,FO,62.2266,-6.589,32.0,86,40,3.44,scattered clouds
289,Clayton,US,33.5335,-84.3666,57.99,44,75,10.36,broken clouds
290,Najran,SA,17.4924,44.1277,53.6,87,40,5.75,scattered clouds
291,Pasni,PK,25.2631,63.471,67.35,65,100,11.52,overcast clouds
292,Xuddur,SO,4.1213,43.8894,75.81,48,49,17.52,scattered clouds
293,Marsh Harbour,BS,26.5412,-77.0636,76.82,79,15,10.09,few clouds
294,Lingao,CN,19.9103,109.6859,66.78,92,100,14.79,overcast clouds
295,Chara,RU,56.9064,118.2631,3.96,86,96,1.39,overcast clouds
296,Itarema,BR,-2.9248,-39.9167,82.8,74,100,12.5,overcast clouds
297,Kayes,ML,14.0,-11.0,83.21,14,0,8.16,clear sky
298,Katsuura,JP,35.1333,140.3,35.01,33,38,5.99,scattered clouds
299,Wuwei,CN,37.9281,102.6414,28.58,72,0,1.03,clear sky
300,Santo Angelo,BR,-28.2992,-54.2631,83.05,59,0,5.77,clear sky
301,Hovd,MN,48.0056,91.6419,13.57,89,53,1.74,broken clouds
302,Sitka,US,57.0531,-135.33,24.8,58,90,17.27,light snow
303,Bogashevo,RU,56.3683,85.1447,30.99,80,75,26.84,light snow
304,Richards Bay,ZA,-28.783,32.0377,75.83,92,74,8.14,light rain
305,Thinadhoo,MV,0.5333,72.9333,82.78,79,95,15.26,overcast clouds
306,Axim,GH,4.8699,-2.2405,80.37,85,75,9.31,broken clouds
307,Hay River,CA,60.8156,-115.7999,-31.0,68,100,20.71,overcast clouds
308,Raudeberg,NO,61.9875,5.1352,26.01,51,0,6.31,clear sky
309,Moche,PE,-8.1711,-79.0092,69.8,88,75,11.5,mist
310,Sharjah,AE,25.3573,55.4033,71.6,78,40,8.05,scattered clouds
311,Broome,US,42.2506,-75.833,24.01,41,75,4.07,broken clouds
312,Bosaso,SO,11.2842,49.1816,73.63,74,48,5.82,scattered clouds
313,La Rioja,ES,42.25,-2.5,46.4,81,40,6.91,scattered clouds
314,Hambantota,LK,6.1241,81.1185,77.49,74,90,20.04,overcast clouds
315,Aykhal,RU,66.0,111.5,-16.62,86,100,6.17,overcast clouds
316,Florianopolis,BR,-27.6146,-48.5012,78.8,61,20,14.97,few clouds
317,Bontang,ID,0.1333,117.5,79.41,81,100,2.77,light rain
318,Kurmanayevka,RU,52.5093,52.0675,-16.94,86,0,8.37,clear sky
319,Kisangani,CD,0.5167,25.2,72.41,51,100,0.54,overcast clouds
320,Beringovskiy,RU,63.05,179.3167,0.25,93,100,6.6,overcast clouds
321,Fenoarivo Atsinanana,MG,-17.3667,49.4167,79.18,82,86,4.34,overcast clouds
322,Tabuk,PH,17.4189,121.4443,70.39,91,97,2.95,overcast clouds
323,Villa Carlos Paz,AR,-31.4241,-64.4978,71.6,73,75,11.5,light rain
324,Tual,ID,-5.6667,132.75,83.01,80,100,17.69,overcast clouds
325,Luderitz,NA,-26.6481,15.1594,74.53,45,0,20.71,clear sky
326,Salinopolis,BR,-0.6136,-47.3561,82.6,75,15,11.86,few clouds
327,Komsomolskiy,UZ,40.4272,71.7189,46.4,81,90,6.91,mist
328,Valparaiso,CL,-33.0393,-71.6273,71.6,49,20,8.05,few clouds
329,Lucea,JM,18.451,-78.1736,84.2,65,20,18.41,few clouds
330,Guilin,CN,25.2819,110.2864,53.6,82,40,4.47,light rain
331,Rohri,PK,27.6922,68.8951,60.8,59,26,2.68,haze
332,Luangwa,ZM,-15.6167,30.4167,74.93,90,100,1.41,light rain
333,Palmeiras De Goias,BR,-16.805,-49.9258,76.64,81,14,3.69,few clouds
334,Sumter,US,28.7086,-82.0831,72.0,76,99,5.01,overcast clouds
335,Moba,CN,33.2288,105.0179,34.09,90,35,3.36,scattered clouds
336,Boa Vista,BR,2.8197,-60.6733,89.6,51,75,12.66,broken clouds
337,Tahe,CN,52.3333,124.7333,-1.44,89,100,5.46,overcast clouds
338,Altay,CN,47.8667,88.1167,31.93,90,100,2.62,light snow
339,Wicklow,IE,53.0,-6.4167,35.01,80,75,17.27,broken clouds
340,Kayasula,RU,44.325,45.0,28.83,98,100,8.77,snow
341,Rio Verde De Mato Grosso,BR,-18.9181,-54.8442,86.49,44,10,6.78,clear sky
342,Yazd,IR,31.8972,54.3675,50.0,53,0,6.91,clear sky
343,Voi,KE,-3.3945,38.563,72.48,85,100,1.92,overcast clouds
344,Maxixe,MZ,-23.8597,35.3472,75.2,50,75,5.75,broken clouds
345,Mhlume,SZ,-26.0333,31.85,75.99,85,47,2.64,scattered clouds
346,Dong Xoai,VN,11.5333,106.9167,72.01,91,20,3.83,few clouds
347,Svetlogorsk,BY,52.6333,29.7333,15.15,93,100,18.63,light snow
348,Amapa,BR,1.0,-52.0,78.58,94,95,4.47,overcast clouds
349,Sola,VU,-13.8833,167.55,81.72,66,0,5.53,clear sky
350,Narasannapeta,IN,18.4167,84.05,65.34,79,32,5.93,scattered clouds
351,Kavaratti,IN,10.5669,72.642,81.48,62,0,5.17,clear sky
352,Shamilkala,RU,42.6858,46.8639,37.4,93,90,2.24,mist
353,Bubaque,GW,11.2833,-15.8333,77.7,74,0,13.22,clear sky
354,Chapais,CA,49.7834,-74.8492,3.2,60,75,9.22,broken clouds
355,Ruwi,OM,23.5996,58.5507,69.8,78,0,3.44,clear sky
356,Naldurg,IN,17.8167,76.3,65.39,25,0,10.0,clear sky
357,Goundam,ML,16.4145,-3.6708,76.37,18,100,11.41,overcast clouds
358,Paamiut,GL,61.994,-49.6678,30.85,85,60,8.28,broken clouds
359,Karratha,AU,-20.7377,116.8463,79.0,73,8,12.95,clear sky
360,Saint-Pierre,RE,-21.3393,55.4781,78.8,73,0,5.75,clear sky
361,Namatanai,PG,-3.6667,152.4333,80.6,81,98,6.51,overcast clouds
362,Kutum,SD,14.2,24.6667,58.51,31,3,11.59,clear sky
363,Rabat,MA,33.9911,-6.8401,59.0,100,75,8.05,broken clouds
364,Arona,ES,28.0996,-16.681,66.2,68,75,8.05,broken clouds
365,Iranshahr,IR,27.2025,60.6848,62.6,31,0,6.91,clear sky
366,Dawson Creek,CA,55.7666,-120.2362,-22.0,63,20,9.22,haze
367,Araouane,ML,18.9048,-3.5265,68.79,20,96,9.13,overcast clouds
368,Pangnirtung,CA,66.1451,-65.7125,17.6,53,20,2.3,few clouds
369,Jacareacanga,BR,-6.2222,-57.7528,89.6,66,20,6.91,few clouds
370,Hithadhoo,MV,-0.6,73.0833,82.49,79,81,11.18,broken clouds
371,College,US,64.8569,-147.8028,-18.4,82,1,4.45,clear sky
372,Beloha,MG,-25.1667,45.05,78.69,77,100,4.72,light rain
373,Taltal,CL,-25.4,-70.4833,70.38,63,30,8.08,scattered clouds
374,Ayan,RU,56.45,138.1667,-2.76,85,100,16.51,overcast clouds
375,Indramayu,ID,-6.3264,108.32,78.87,86,100,10.96,overcast clouds
376,Ankang,CN,32.68,109.0172,42.96,63,100,2.57,overcast clouds
377,Kaele,CM,10.1092,14.4508,77.79,16,95,7.09,overcast clouds
378,Vila Franca Do Campo,PT,37.7167,-25.4333,61.0,88,75,20.71,broken clouds
379,Katherine,AU,-14.4667,132.2667,75.2,94,75,1.14,broken clouds
380,Xining,CN,36.6167,101.7667,24.44,65,0,1.03,clear sky
381,Mount Isa,AU,-20.7333,139.5,75.2,88,40,5.75,light rain
382,Nuevitas,CU,21.5453,-77.2644,86.0,51,40,16.11,scattered clouds
383,Kachug,RU,53.9606,105.8817,7.02,93,49,2.64,scattered clouds
384,Manado,ID,1.487,124.8455,77.0,94,40,2.3,scattered clouds
385,Mujiayingzi,CN,42.1167,118.7833,14.0,85,0,9.06,clear sky
386,Gizo,SB,-8.103,156.8419,82.96,75,95,8.5,moderate rain
387,Sechura,PE,-5.5569,-80.8222,86.5,46,15,14.38,few clouds
388,Nikolskoye,RU,59.7035,30.7861,6.01,84,0,3.27,clear sky
389,Dighwara,IN,25.7333,85.0,51.8,76,0,2.3,mist
390,Shimoda,JP,34.6667,138.95,30.0,45,28,1.99,scattered clouds
391,Manacapuru,BR,-3.2997,-60.6206,77.0,94,75,1.14,broken clouds
392,Bogo,PH,11.0517,124.0055,76.14,94,100,8.63,overcast clouds
393,Mamontovo,RU,52.7055,81.6244,9.73,94,94,15.86,overcast clouds
394,Ust-Nera,RU,64.5667,143.2,-14.06,79,20,7.02,few clouds
395,Ngozi,BI,-2.9075,29.8306,61.05,93,97,1.5,overcast clouds
396,Kismayo,SO,-0.3582,42.5454,77.88,78,40,15.86,scattered clouds
397,Otradnoye,RU,59.7775,30.8181,6.01,84,0,3.42,clear sky
398,Kazanskoye,RU,55.6448,69.235,-4.45,89,100,14.27,overcast clouds
399,Alekseyevka,RU,50.6309,38.6903,12.78,86,100,12.59,overcast clouds
400,Machachi,EC,-0.5,-78.5667,69.8,93,75,6.91,moderate rain
401,Mayor Pablo Lagerenza,PY,-19.9309,-60.7718,99.43,17,0,6.89,clear sky
402,Plettenberg Bay,ZA,-34.0527,23.3716,65.88,80,0,4.09,clear sky
403,Vardo,NO,70.3705,31.1107,23.0,93,90,18.41,light snow
404,Baghmara,IN,23.795,86.2085,60.71,41,0,3.98,clear sky
405,Kavos,GR,38.8268,22.8322,57.2,54,20,8.05,few clouds
406,Segou,ML,13.4317,-6.2157,82.71,15,0,9.44,clear sky
407,Opportunity,US,47.6499,-117.2399,34.0,51,90,4.61,overcast clouds
408,Dhidhdhoo,MV,6.8833,73.1,81.3,68,7,5.19,clear sky
409,Olafsvik,IS,64.8945,-23.7142,35.38,82,91,12.53,overcast clouds
410,Tighina,MD,46.8306,29.4711,33.8,100,90,11.5,light rain
411,Navolato,MX,24.7672,-107.6944,82.0,35,1,3.44,clear sky
412,Wajima,JP,37.4,136.9,32.61,91,100,21.03,light snow
413,Jhang,PK,33.6748,72.6963,55.99,68,0,2.1,clear sky
414,Porto Walter,BR,-8.2686,-72.7439,90.18,55,100,1.3,overcast clouds
415,Great Yarmouth,GB,52.6083,1.7305,32.0,86,75,13.8,light snow
416,Talara,PE,-4.5772,-81.2719,91.4,46,0,18.41,clear sky
417,Naifaru,MV,5.4444,73.3657,81.16,71,78,7.14,broken clouds
418,Quelimane,MZ,-17.8786,36.8883,77.7,91,44,2.48,scattered clouds
419,Kamina,CD,-8.7386,24.9906,66.43,97,100,4.07,overcast clouds
420,Pandan,PH,14.0453,124.1694,78.06,87,100,18.34,moderate rain
421,Brae,GB,60.3964,-1.353,32.0,64,75,19.57,broken clouds
422,Sorland,NO,67.667,12.6934,33.8,93,75,20.71,light snow
423,Porto De Moz,BR,-1.7483,-52.2383,91.11,49,97,2.73,overcast clouds
424,Amahai,ID,-3.3333,128.9167,78.85,75,100,2.73,overcast clouds
425,Presidencia Roque Saenz Pena,AR,-26.7852,-60.4388,91.99,35,100,1.99,overcast clouds
426,Alamosa,US,37.4695,-105.87,50.0,14,1,18.41,clear sky
427,Kirakira,SB,-10.4544,161.9205,80.24,80,100,7.27,overcast clouds
428,Teluk Nibung,ID,3.001,99.8164,75.63,92,100,2.48,overcast clouds
429,Alofi,NU,-19.0595,-169.9187,80.6,89,75,5.75,light rain
430,San Isidro,PE,-12.1167,-77.05,78.01,73,40,14.97,scattered clouds
431,Leningradskiy,RU,69.3833,178.4167,-22.22,84,64,10.25,broken clouds
432,Opuwo,NA,-18.0607,13.84,72.12,45,100,9.31,overcast clouds
433,San Cristobal,VE,7.7669,-72.225,89.6,48,40,11.5,scattered clouds
434,Balykshi,KZ,47.0667,51.8667,14.0,62,0,4.47,clear sky
435,Venado Tuerto,AR,-33.7456,-61.9688,78.55,61,100,10.31,moderate rain
436,Petropavlovsk-Kamchatskiy,RU,53.0452,158.6483,14.0,85,20,8.95,few clouds
437,Mandal,IN,25.45,74.5667,59.83,33,0,4.0,clear sky
438,Antofagasta,CL,-23.65,-70.4,73.0,64,20,14.97,few clouds
439,Bilibino,RU,68.0546,166.4372,4.3,81,100,6.31,overcast clouds
440,Champerico,GT,14.3,-91.9167,93.2,52,40,6.91,scattered clouds
441,Oranjemund,NA,-28.55,16.4333,65.23,83,0,17.43,clear sky
442,Honningsvag,NO,70.9821,25.9704,24.8,86,75,16.11,light snow
443,Nago,JP,26.5881,127.9761,57.2,76,1,9.22,clear sky
444,Siderno,IT,38.2779,16.302,57.2,67,90,6.91,overcast clouds
445,Mount Pleasant,US,32.7941,-79.8626,59.0,67,1,4.61,clear sky
446,Vitina,BA,43.2375,17.4839,46.4,81,40,4.61,scattered clouds
447,Mandalgovi,MN,45.7625,106.2708,13.42,75,0,7.34,clear sky
448,Laguna,US,38.421,-121.4238,61.0,62,1,3.44,clear sky
449,Vertientes,CU,21.2594,-78.1464,86.0,51,40,16.11,scattered clouds
450,Sankheda,IN,22.1667,73.5833,67.57,24,0,5.44,clear sky
451,Okhotsk,RU,59.3833,143.3,14.61,89,100,13.38,overcast clouds
452,Port Augusta,AU,-32.5,137.7667,66.0,77,0,4.61,clear sky
453,Kampot,KH,10.6167,104.1833,75.2,88,20,5.55,few clouds
454,Rincon,US,32.296,-81.2354,66.0,55,75,13.8,broken clouds
455,Sunland Park,US,31.7965,-106.58,68.0,10,1,10.36,clear sky
456,Mount Gambier,AU,-37.8333,140.7667,48.2,93,0,6.91,clear sky
457,Kristiansund,NO,63.1115,7.732,21.2,68,0,3.44,clear sky
458,Haines Junction,CA,60.7522,-137.5108,-18.4,83,100,3.44,overcast clouds
459,Samana,DO,19.2056,-69.3369,84.2,74,40,7.16,scattered clouds
460,Hudson Bay,CA,52.85,-102.3842,-19.26,82,100,13.94,overcast clouds
461,Arki,IN,31.15,76.9667,51.03,47,36,5.1,scattered clouds
462,Jinji,CN,23.2281,110.8261,60.69,77,100,7.14,moderate rain
463,Muborak,UZ,39.2553,65.1528,47.93,77,0,6.6,clear sky
464,Hervey Bay,AU,-25.2986,152.8535,73.99,76,63,3.0,broken clouds
465,Moerai,PF,-22.4333,-151.3333,81.25,70,14,10.33,few clouds
466,Conde,BR,-7.2597,-34.9075,84.2,70,20,10.36,few clouds
467,Nouadhibou,MR,20.931,-17.0347,66.2,68,0,20.71,clear sky
468,Leeton,AU,-34.5667,146.4,66.2,72,0,10.36,clear sky
469,Aksu,CN,41.1231,80.2644,28.29,77,92,0.72,overcast clouds
470,Coos Bay,US,43.3665,-124.2179,46.0,81,1,6.82,clear sky
471,Arklow,IE,52.7931,-6.1414,33.01,82,100,8.01,overcast clouds
472,Verkhnyaya Inta,RU,65.9811,60.3094,-16.1,89,100,3.76,overcast clouds
473,Yuncheng,CN,35.0231,110.9928,36.43,74,1,4.0,clear sky
474,Mayo,US,38.8876,-76.5119,35.01,47,1,9.22,clear sky
475,Tabou,CI,4.423,-7.3528,78.51,86,100,4.25,light rain
476,Quixada,BR,-4.9714,-39.0153,92.17,37,59,5.48,broken clouds
477,Kuruman,ZA,-27.4524,23.4325,75.0,70,18,7.78,few clouds
478,Benghazi,LY,32.1167,20.0667,62.6,72,0,7.67,clear sky
479,Zvishavane,ZW,-20.3267,30.0665,69.71,82,5,4.85,clear sky
480,Manta,EC,-0.95,-80.7333,80.6,78,90,2.3,overcast clouds
481,Lufilufi,WS,-13.8745,-171.5986,82.4,83,75,17.27,light rain
482,Saint-Joseph,RE,-21.3667,55.6167,78.8,73,0,5.75,clear sky
483,Nha Trang,VN,12.25,109.1833,77.0,69,20,5.75,few clouds
484,Kilemary,RU,56.7783,46.8659,-8.82,90,100,7.74,overcast clouds
485,Mbuji-Mayi,CD,-6.15,23.6,72.68,85,100,2.44,light rain
486,Soledade,BR,-28.8183,-52.5103,76.75,62,0,3.98,clear sky
487,Dalnerechensk,RU,45.9339,133.7225,-9.62,88,0,8.86,clear sky
488,Killybegs,IE,54.6333,-8.45,35.6,69,20,17.27,few clouds
489,El Banco,CO,9.0011,-73.9758,101.77,29,4,3.98,clear sky
490,Ostrovnoy,RU,68.0531,39.5131,-1.82,90,87,10.47,overcast clouds
491,Burgos,ES,42.3394,-3.7079,43.0,93,75,11.5,broken clouds
492,Ambulu,ID,-8.345,113.6058,75.33,91,100,1.48,overcast clouds
493,Havre-Saint-Pierre,CA,50.2334,-63.5986,26.6,68,20,12.66,few clouds
494,Loandjili,CG,-4.7561,11.8578,80.56,85,81,5.75,broken clouds
495,Lernakert,AM,40.5617,43.9392,23.0,86,44,4.03,mist
496,Shingu,JP,33.7333,135.9833,31.73,90,0,4.52,clear sky
497,Smithers,CA,54.7804,-127.1743,3.2,85,40,12.66,scattered clouds
498,Tonantins,BR,-2.8731,-67.8022,83.88,84,100,2.53,overcast clouds
499,Nelson Bay,AU,-32.7167,152.15,68.0,83,90,11.5,overcast clouds
500,Miracema Do Tocantins,BR,-9.5618,-48.3967,83.79,67,100,0.94,overcast clouds
501,Teguise,ES,29.0605,-13.564,66.2,59,75,9.22,broken clouds
502,Gushikawa,JP,26.3544,127.8686,57.2,76,1,9.22,clear sky
503,Glasgow,GB,55.8652,-4.2576,30.99,93,75,11.5,moderate rain
504,Lufkin,US,31.3382,-94.7291,64.0,72,90,10.36,overcast clouds
505,Naron,ES,43.5167,-8.1528,53.01,87,20,8.05,few clouds
506,Voinesti,RO,47.0667,27.4167,30.2,100,90,5.75,fog
507,General Roca,AR,-39.0333,-67.5833,75.2,38,0,10.36,clear sky
508,Port Blair,IN,11.6667,92.75,75.47,78,87,12.95,overcast clouds
509,Coahuayana,MX,18.7333,-103.6833,78.8,38,20,7.45,few clouds
510,Kamenka,RU,51.3223,42.7678,-6.99,85,29,3.89,scattered clouds
511,San Clemente,US,33.427,-117.612,60.01,80,0,1.99,clear sky
512,Progreso,MX,21.2833,-89.6667,93.2,43,40,11.5,scattered clouds
513,Port Hardy,CA,50.6996,-127.4199,37.4,56,20,8.05,few clouds
514,Dubbo,AU,-32.25,148.6167,62.6,77,11,11.5,few clouds
515,Arivonimamo,MG,-19.0167,47.1833,68.0,83,75,3.44,light rain
516,Bad Kreuznach,DE,49.8333,7.8667,26.01,92,93,4.0,overcast clouds
517,Bajil,YE,15.0584,43.2851,72.93,76,100,3.62,overcast clouds
518,Jutai,BR,-5.1833,-68.9,84.67,75,100,2.37,light rain
519,Tagcatong,PH,9.0022,125.2569,73.98,89,100,1.19,overcast clouds
520,Kefalos,GR,36.7453,26.9589,62.6,77,40,17.27,scattered clouds
521,Polazna,RU,58.2946,56.4055,-11.2,64,40,11.18,light snow
522,Mirnyy,RU,62.5353,113.9611,-12.71,90,100,4.32,overcast clouds
523,Cabedelo,BR,-6.9811,-34.8339,84.2,70,20,10.36,few clouds
524,El Alto,PE,-4.2714,-81.2147,91.4,46,0,18.41,clear sky
525,Makhachkala,RU,42.9764,47.5024,37.4,93,90,2.24,mist
526,Sobolevo,RU,54.4299,31.8996,5.31,92,100,9.82,overcast clouds
527,Jieshi,CN,22.8134,115.8257,66.99,68,100,24.36,overcast clouds
528,Havoysund,NO,70.9963,24.6622,24.8,86,75,16.11,light snow
529,Boyolangu,ID,-8.1181,111.8935,74.75,90,100,6.58,overcast clouds
530,Jaumave,MX,23.4167,-99.3833,82.4,39,40,13.8,scattered clouds
531,Niles,US,42.0189,-87.8028,17.01,67,90,1.05,light snow
532,Corinto,GR,37.9407,22.9573,61.0,59,5,18.99,clear sky
533,Saint-Augustin,CA,51.226,-58.6502,34.61,97,100,12.71,snow
534,Teruel,ES,40.6667,-0.6667,44.01,93,0,3.44,light rain
535,Santa Cruz,BO,-17.8,-63.1667,93.2,46,75,9.22,broken clouds
536,Puerto Carreno,CO,6.189,-67.4859,95.7,37,100,14.03,overcast clouds
537,Usinsk,RU,65.9939,57.5281,-14.48,89,100,9.24,overcast clouds
538,Zhangzhou,CN,24.5133,117.6556,60.8,59,0,13.42,clear sky
539,Ternovka,RU,51.678,41.6375,-4.88,87,45,3.2,scattered clouds
540,At-Bashi,KG,41.1702,75.8106,23.77,87,92,1.19,snow
541,Tsumeb,NA,-19.2333,17.7167,66.2,94,100,1.14,moderate rain
542,Roros,NO,62.5747,11.3842,-9.4,77,0,2.3,clear sky
543,Ken Caryl,US,39.5773,-105.1169,42.01,40,20,5.75,few clouds
544,Alyangula,AU,-13.8483,136.4192,82.4,83,75,5.75,broken clouds
545,Soponya,HU,47.0149,18.4534,36.0,80,24,8.01,few clouds
546,Baoding,CN,38.8511,115.4903,32.43,78,0,3.6,clear sky
547,Colesberg,ZA,-30.72,25.0972,71.15,44,0,19.77,clear sky
548,Kiama,AU,-34.6833,150.8667,64.99,94,100,1.99,overcast clouds
549,Bull Savanna,JM,17.8868,-77.5902,80.53,70,21,14.32,few clouds
550,Salalah,OM,17.0151,54.0924,73.4,73,0,2.3,clear sky
551,Havre,FR,49.5833,0.3333,30.2,86,90,11.5,overcast clouds
552,Ilula,TZ,-7.6766,36.0366,68.0,88,40,1.72,scattered clouds
553,Jalu,LY,29.0331,21.5482,62.8,39,100,11.1,overcast clouds
554,Seymchan,RU,62.8833,152.4333,-14.37,85,100,10.49,overcast clouds
555,Mozarlandia,BR,-14.7447,-50.5706,79.03,84,36,6.76,scattered clouds
556,Samarai,PG,-10.6167,150.6667,81.5,80,100,6.42,overcast clouds
557,Fuyang,CN,32.9,115.8167,37.65,76,100,9.44,overcast clouds
558,Arbuzynka,UA,47.9097,31.3196,31.26,98,100,21.41,overcast clouds
559,Batagay,RU,67.6333,134.6333,-34.46,82,54,2.06,broken clouds
560,Zhigansk,RU,66.7697,123.3711,-27.58,81,0,9.22,clear sky
561,Vaxjo,SE,56.8777,14.8091,23.0,74,90,8.05,overcast clouds
562,Margate,GB,51.3813,1.3862,30.0,72,100,3.0,light snow
563,Greve Strand,DK,55.5834,12.2999,26.01,68,90,12.66,light snow
564,Armidale,AU,-30.5167,151.65,54.0,85,21,3.0,few clouds
565,Roald,NO,62.5833,6.1333,23.0,63,0,10.36,clear sky
566,Tolaga Bay,NZ,-38.3667,178.3,63.79,64,100,2.75,overcast clouds
567,Bonfim,BR,3.0833,-59.95,93.24,41,58,10.31,broken clouds
568,Sakakah,SA,29.9697,40.2064,55.4,67,0,3.44,clear sky
569,Bogale,MM,16.2833,95.4,63.18,77,0,7.07,clear sky
570,Rio Grande,BR,-32.035,-52.0986,77.0,69,40,12.66,moderate rain
571,Tarko-Sale,RU,64.9225,77.785,-10.61,91,85,4.81,overcast clouds
572,Lahat,ID,-3.8,103.5333,70.99,87,100,3.27,overcast clouds
573,Zaozerne,UA,45.1582,33.2787,51.96,72,100,12.37,overcast clouds
574,Chernyshevskiy,RU,63.0128,112.4714,-14.42,91,100,3.36,overcast clouds
575,La Libertad,EC,-2.2333,-80.9,84.2,70,0,6.91,clear sky
576,Ust-Kuyga,RU,70.0167,135.6,-20.47,80,8,1.3,clear sky
577,Elk City,US,35.412,-99.4043,21.2,100,90,11.74,overcast clouds
578,Varkaus,FI,62.3153,27.873,5.0,92,0,3.44,clear sky
579,Inirida,CO,3.8653,-67.9239,88.72,58,80,3.22,broken clouds
580,Gat,IL,31.61,34.7642,64.0,57,75,5.19,broken clouds
581,Cartagena Del Chaira,CO,1.3349,-74.8429,92.14,48,13,4.14,few clouds
582,Dargaville,NZ,-35.9333,173.8833,67.35,78,100,5.95,overcast clouds
583,Kjopsvik,NO,68.097,16.3742,30.0,86,20,6.91,snow
584,Sychevka,RU,55.8252,34.2736,1.4,94,69,5.3,broken clouds
585,Mongu,ZM,-15.2484,23.1274,70.11,93,100,5.91,moderate rain
586,West Helena,US,34.5507,-90.6418,50.0,62,40,5.75,scattered clouds
587,Asau,RO,46.4333,26.4,34.0,76,100,3.29,overcast clouds
588,Bogalusa,US,30.791,-89.8487,66.2,59,90,6.91,overcast clouds
589,Viedma,AR,-40.8135,-62.9967,75.99,38,0,1.01,clear sky
590,A Coruna,ES,43.3713,-8.396,53.01,87,20,8.05,few clouds
591,Lockhart,US,28.6194,-81.4426,72.0,73,90,13.8,overcast clouds
592,San Rafael,AR,-34.6177,-68.3301,59.76,69,95,6.38,overcast clouds
593,Qostanay,KZ,53.1667,63.5833,-0.4,78,0,15.66,clear sky
594,Baherden,TM,38.4362,57.4316,51.84,61,49,7.9,scattered clouds
595,Hirara,JP,24.8,125.2833,64.96,78,100,24.52,overcast clouds
596,Camana,PE,-16.6228,-72.7111,76.41,68,64,8.37,broken clouds
597,Bunia,CD,1.5667,30.25,68.88,34,100,2.64,overcast clouds
598,Chinhoyi,ZW,-17.3667,30.2,66.47,91,100,3.91,overcast clouds
599,Codrington,AU,-38.2667,141.9667,50.4,93,6,7.83,clear sky
600,Berlevag,NO,70.8578,29.0864,19.4,93,75,12.66,light snow
601,Bayanday,RU,53.0661,105.5139,10.94,90,0,3.24,clear sky
602,Port Macquarie,AU,-31.4333,152.9167,64.99,99,54,9.98,broken clouds
603,The Pas,CA,53.8251,-101.2541,-22.0,63,90,19.57,light snow
604,Innisfail,AU,-17.5333,146.0333,77.11,88,100,4.09,light rain
605,Palmer,US,42.1584,-72.3287,28.99,33,20,3.44,few clouds
606,Takoradi,GH,4.8845,-1.7554,80.74,85,36,10.74,scattered clouds
607,Diamantino,BR,-14.4086,-56.4461,87.55,45,12,3.62,few clouds
608,Cururupu,BR,-1.8283,-44.8683,84.9,63,3,7.25,moderate rain
609,Khorixas,NA,-20.3667,14.9667,70.77,57,100,7.9,light rain
610,Xichang,CN,27.8964,102.2634,42.75,65,100,1.28,overcast clouds
611,Yeppoon,AU,-23.1333,150.7333,78.8,69,90,9.22,overcast clouds
612,Port-Gentil,GA,-0.7193,8.7815,82.4,83,90,4.61,light rain
613,Harper,LR,4.375,-7.7169,78.55,86,100,4.94,moderate rain
614,Otacilio Costa,BR,-27.4831,-50.1219,78.13,39,11,5.5,few clouds
615,Zapadnaya Dvina,RU,56.259,32.0745,5.59,95,97,4.99,overcast clouds
616,Itaberaba,BR,-12.5275,-40.3069,78.75,83,100,3.24,overcast clouds
617,Vao,NC,-22.6667,167.4833,76.93,85,11,6.6,few clouds
618,Praia,CV,14.9215,-23.5087,69.8,73,90,19.57,overcast clouds
619,Kargasok,RU,59.0556,80.8572,9.75,96,100,12.64,light snow
620,Sao Paulo De Olivenca,BR,-3.3783,-68.8725,85.95,72,100,3.42,moderate rain
621,Zelenoborsk,RU,61.4669,64.0333,-13.88,89,100,4.97,overcast clouds
622,Bonavista,CA,48.6499,-53.1147,30.99,100,100,8.05,snow
623,Mackay,AU,-21.15,149.2,77.0,88,100,5.75,overcast clouds
624,Gora Kalwaria,PL,51.9765,21.2154,18.0,77,100,11.83,light snow
625,Methoni,GR,36.8197,21.7049,60.01,82,23,3.44,few clouds
626,Kaeo,NZ,-35.1,173.7833,69.01,92,99,5.99,overcast clouds
627,Jumla,NP,29.2747,82.1838,39.69,55,0,5.5,clear sky
628,Sioux Lookout,CA,50.1001,-91.917,-14.8,53,40,11.5,scattered clouds
629,Yumen,CN,40.2833,97.2,26.92,76,4,7.47,clear sky
630,Kalianget,ID,-7.05,113.9333,78.93,85,100,10.58,overcast clouds
631,Warrington,GB,53.3925,-2.5802,35.01,80,90,11.5,overcast clouds
632,Igarka,RU,67.4667,86.5833,-10.08,88,84,4.18,broken clouds
633,Lasa,IT,46.6166,10.7002,42.8,79,0,3.6,clear sky
634,Saint Anthony,US,45.0205,-93.218,1.0,50,40,8.05,scattered clouds
635,Gornopravdinsk,RU,60.05,69.9,-16.92,89,32,2.64,scattered clouds
636,Oktyabrskiy,RU,54.4815,53.471,-18.89,86,100,9.86,overcast clouds
637,Guerrero Negro,MX,27.9769,-114.0611,70.29,38,7,7.56,clear sky
638,Buin,CL,-33.7333,-70.75,82.99,47,0,6.91,clear sky
639,Ponta Delgada,PT,37.7333,-25.6667,61.0,88,75,20.71,broken clouds
640,Kjollefjord,NO,70.9457,27.3465,24.8,86,75,16.11,light snow
641,Paita,PE,-5.0892,-81.1144,91.4,46,0,18.41,clear sky
642,Lumeje,AO,-11.55,20.7833,68.65,87,100,5.14,overcast clouds
643,Los Llanos De Aridane,ES,28.6585,-17.9182,66.2,72,75,3.44,broken clouds
644,Auki,SB,-8.7676,160.7034,79.68,82,98,5.79,moderate rain
645,Careiro Da Varzea,BR,-3.2003,-59.8119,82.4,94,75,1.14,broken clouds
646,Manjacaze,MZ,-24.7117,33.8828,73.67,88,0,5.44,clear sky
647,Elban,RU,50.1018,136.5094,-6.75,91,100,5.95,overcast clouds
648,Lodja,CD,-3.4833,23.4333,75.09,61,77,0.98,broken clouds
649,Fukagawa,JP,43.7081,142.0392,15.21,94,94,6.91,overcast clouds
650,Klyuchi,RU,52.2667,79.1667,4.3,90,84,15.1,broken clouds
651,Anadyr,RU,64.75,177.4833,10.4,72,40,20.13,snow
652,Sungairaya,ID,0.7,108.9,76.69,90,100,7.0,moderate rain
653,Pemangkat,ID,1.1667,108.9667,77.09,89,100,5.99,light rain
654,Payson,US,40.0444,-111.7321,51.8,16,75,4.61,broken clouds
655,Sabzevar,IR,36.2126,57.6819,49.1,61,52,2.59,broken clouds
656,Bud,US,39.447,-86.1758,26.01,63,90,3.06,overcast clouds
657,Morondava,MG,-20.2833,44.2833,82.27,73,99,4.21,moderate rain
658,Lamar,US,33.6668,-95.5836,53.01,82,90,11.5,overcast clouds
659,Vila,PT,42.0304,-8.1588,45.0,95,100,18.01,overcast clouds
660,Makakilo City,US,21.3469,-158.0858,75.2,57,20,11.5,few clouds
661,Baghdad,IQ,33.3406,44.4009,55.4,88,0,2.3,clear sky
662,Belaya Gora,RU,68.5333,146.4167,-21.01,86,22,2.53,few clouds
663,Artyom,AZ,40.4723,50.333,46.4,81,40,16.11,scattered clouds
664,Jiujiang,CN,29.7333,115.9833,45.03,72,89,10.11,overcast clouds
665,Nabire,ID,-3.3667,135.4833,75.99,92,100,3.42,moderate rain
666,Tahta,EG,26.7693,31.5021,68.0,48,0,6.91,clear sky
667,Ondjiva,AO,-17.0667,15.7333,72.61,73,100,4.38,overcast clouds
668,Ausa,ES,41.9271,2.2497,44.01,93,100,2.68,overcast clouds
669,Khandbari,NP,27.3747,87.2039,55.04,36,0,3.27,clear sky
670,Arbon,CH,47.5167,9.4333,37.4,87,75,13.8,broken clouds
